{
	"data": {
		"offices": [
            {
				"id": 1,
				"name": "Офис МСК 3",
				"address": "Москва, Ленинградский проспект, 37А, к4",
				"location": {
					"latitude": 55.791714,
					"longitude": 37.542329
				},
				"workHours": "ПН-ПТ, С 10 до 18",
				"phones": "+7(495)933-05-95"
			},
			{
				"id": 2,
				"name": "Офис СПБ",
				"address": "Санкт-Петерубург, пр. Медиков, д.3, лит А, м. Петроградская",
				"location": {
					"latitude": 59.969232,
					"longitude": 30.316281
				},
				"workHours": "ПН-ПТ, С 10 до 18",
				"phones": "+7(495)695-41-46"
			},
			{
				"id": 3,
				"name": "Офис СМР",
				"address": "Самара, проспект Карла Маркса, 201Б",
				"location": {
					"latitude": 53.213342,
					"longitude": 50.187590
				},
				"workHours": "ПН-ПТ, С 10 до 18",
				"phones": "+7(909)678-70-95"
			},
			{
				"id": 4,
				"name": "Офис ТЛТ",
				"address": "Тольятти, ул. Тополиная, 16",
				"location": {
					"latitude": 53.543866,
					"longitude": 49.345078
				},
				"workHours": "ПН-ПТ, С 10 до 18"
			},
			{
				"id": 5,
				"name": "Офис ИННО",
				"address": "Иннополис, Университетская улица, 7",
				"location": {
					"latitude": 55.751872,
					"longitude": 48.752936
				},
				"workHours": "ПН-ПТ, С 10 до 18"
			},
			{
				"id": 6,
				"name": "Офис МСК 2",
				"address": "Москва, улица Пресненский Вал, 27с9",
				"location": {
					"latitude": 55.772153,
					"longitude": 37.569539
				},
				"workHours": "Закрыто"
			},
			{
				"id": 7,
				"name": "Офис МСК 1",
				"address": "Москва, Спартаковский пер., 2, стр. 1",
				"location": {
					"latitude": 55.778487,
					"longitude": 37.672379
				},
				"workHours": "Закрыто"
			}
		],
		"atms": [
            {
				"id": 1,
				"name": "Банкомат Парк Горького",
				"address": "Москва, Парк Горького",
				"location": {
					"latitude": 55.729196,
					"longitude": 37.600172
				},
				"workHours": "Круглосуточно"
			},
			{
				"id": 2,
				"name": "Банкомат Москоу Сити",
				"address": "Москва, Москоу сити",
				"location": {
					"latitude": 55.747388,
					"longitude": 37.534732
				},
				"workHours": "Круглосуточно"
			},
			{
				"id": 3,
				"name": "Банкомат Парк Зарядье",
				"address": "Москва, Парк Зарядье",
				"location": {
					"latitude": 55.751329,
					"longitude": 37.629032
				},
				"workHours": "Круглосуточно"
			},
			{
				"id": 4,
				"name": "Банкомат Красная площадь",
				"address": "Москва, Красная площадь",
				"location": {
					"latitude": 55.752200,
					"longitude": 37.615600
				},
				"workHours": "Круглосуточно"
			},
			{
				"id": 5,
				"name": "Банкомат ТРЦ Европейский",
				"address": "Москва, ТРЦ Европейский",
				"location": {
					"latitude": 55.744410,
					"longitude": 37.566547
				},
				"workHours": "Круглосуточно"
			},
			{
				"id": 6,
				"name": "Банкомат Детский мир",
				"address": "Москва, ЦДД",
				"location": {
					"latitude": 55.760101,
					"longitude": 37.625004
				},
				"workHours": "Круглосуточно"
			},
			{
				"id": 7,
				"name": "Банкомат ВДНХ",
				"address": "Москва, ВДНХ",
				"location": {
					"latitude": 55.831035,
					"longitude": 37.629912
				},
				"workHours": "Круглосуточно"
			},
			{
				"id": 8,
				"name": "Банкомат Парк Сокольники",
				"address": "Москва, Парк Сокольники",
				"location": {
					"latitude": 55.800290,
					"longitude": 37.674176
				},
				"workHours": "Круглосуточно"
			},
			{
				"id": 9,
				"name": "Банкомат МГУ",
				"address": "Москва, Московский Государственный Университет",
				"location": {
					"latitude": 55.702930,
					"longitude": 37.530860
				},
				"workHours": "Круглосуточно"
			},
			{
				"id": 10,
				"name": "Банкомат Большой театр",
				"address": "Москва, Большой театр России",
				"location": {
					"latitude": 55.759976,
					"longitude": 37.618690
				},
				"workHours": "Круглосуточно"
			},
			{
				"id": 11,
				"name": "Банкомат Арбат",
				"address": "Москва, улица Арбат",
				"location": {
					"latitude": 55.750654,
					"longitude": 37.595373
				},
				"workHours": "Круглосуточно"
			}
		]
	}
}